[
  {
    "id": "1",
    "name": "Student 1",
    "institute": "Jagannath University",
    "program": "BTech",
    "city": "Jaipur",
    "pinCode": "341533",
    "coordinates": [26.9124, 75.7873]
  },
  {
    "id": "2",
    "name": "Student 2",
    "institute": "Post Graduate Programs in Data Science and Analytics",
    "program": "BTech",
    "city": "Delhi",
    "pinCode": "322023",
    "coordinates": [28.7041, 77.1025]
  },
  {
    "id": "3",
    "name": "Student 3",
    "institute": "NIT Rourkela",
    "program": "MSc",
    "city": "Rourkela",
    "pinCode": "751030",
    "coordinates": [22.2492, 84.9016]
  },
  {
    "id": "4",
    "name": "Student 4",
    "institute": "Poornima College of Engineering",
    "program": "BTech",
    "city": "Jaipur",
    "pinCode": "302031",
    "coordinates": [26.9124, 75.7873]
  },
  {
    "id": "5",
    "name": "Student 5",
    "institute": "Dr BR Ambedkar Open University",
    "program": "BA",
    "city": "Hyderabad",
    "pinCode": "500035",
    "coordinates": [17.3850, 78.4867]
  },
  {
    "id": "6",
    "name": "Student 6",
    "institute": "MBM",
    "program": "B.E",
    "city": "Jodhpur",
    "pinCode": "311001",
    "coordinates": [26.2389, 73.0243]
  },
  {
    "id": "7",
    "name": "Student 7",
    "institute": "IIIT Bangalore",
    "program": "PG Diploma",
    "city": "Bangalore",
    "pinCode": "700118",
    "coordinates": [12.9716, 77.5946]
  },
  {
    "id": "8",
    "name": "Student 8",
    "institute": "Rajasthan University, CS & IT Department",
    "program": "M.Sc IT",
    "city": "Jaipur",
    "pinCode": "302034",
    "coordinates": [26.9124, 75.7873]
  },
  {
    "id": "9",
    "name": "Student 9",
    "institute": "Engineering College",
    "program": "BTech",
    "city": "Jaipur",
    "pinCode": "302021",
    "coordinates": [26.9124, 75.7873]
  },
  {
    "id": "10",
    "name": "Student 10",
    "institute": "RCEW",
    "program": "MTech",
    "city": "Jaipur",
    "pinCode": "302034",
    "coordinates": [26.9124, 75.7873]
  },
  {
    "id": "11",
    "name": "Student 11",
    "institute": "SBCET",
    "program": "BTech",
    "city": "Jaipur",
    "pinCode": "302012",
    "coordinates": [26.9124, 75.7873]
  },
  {
    "id": "12",
    "name": "Student 12",
    "institute": "Sri Balaji College of Engineering and Technology",
    "program": "BTech",
    "city": "Jaipur",
    "pinCode": "302012",
    "coordinates": [26.9124, 75.7873]
  },
  {
    "id": "13",
    "name": "Student 13",
    "institute": "Maharishi Arvind School of Management Studies",
    "program": "BCA",
    "city": "Jaipur",
    "pinCode": "302012",
    "coordinates": [26.9124, 75.7873]
  }
]